[
                {
                    city: "Selkirk",
                    city_ascii: "Selkirk",
                    lat: 50.15,
                    lng: -96.8833,
                    country: "Canada",
                    iso2: "CA",
                    iso3: "CAN",
                    admin_name: "Manitoba",
                    capital: "",
                    population: 9986,
                    id: 1124499880
                },
                {
                    city: "Trepassey",
                    city_ascii: "Trepassey",
                    lat: 46.737,
                    lng: -53.3633,
                    country: "Canada",
                    iso2: "CA",
                    iso3: "CAN",
                    admin_name: "Newfoundland and Labrador",
                    capital: "",
                    population: 398,
                    id: 1124344083
                },
                {
                    city: "Schefferville",
                    city_ascii: "Schefferville",
                    lat: 54.8,
                    lng: -66.8167,
                    country: "Canada",
                    iso2: "CA",
                    iso3: "CAN",
                    admin_name: "Québec",
                    capital: "",
                    population: 471,
                    id: 1124403382
                },
                {
                    city: "Whitehorse",
                    city_ascii: "Whitehorse",
                    lat: 60.7167,
                    lng: -135.05,
                    country: "Canada",
                    iso2: "CA",
                    iso3: "CAN",
                    admin_name: "Yukon",
                    capital: "admin",
                    population: 23276,
                    id: 1124348186
                },
                {
                    city: "Trout River",
                    city_ascii: "Trout River",
                    lat: 49.4837,
                    lng: -58.1166,
                    country: "Canada",
                    iso2: "CA",
                    iso3: "CAN",
                    admin_name: "Newfoundland and Labrador",
                    capital: "",
                    population: 452,
                    id: 1124733447
                },
                {
                    city: "Yorkton",
                    city_ascii: "Yorkton",
                    lat: 51.2171,
                    lng: -102.4665,
                    country: "Canada",
                    iso2: "CA",
                    iso3: "CAN",
                    admin_name: "Saskatchewan",
                    capital: "",
                    population: 15172,
                    id: 1124108820
                },
                {
                    city: "Antigonish",
                    city_ascii: "Antigonish",
                    lat: 45.6269,
                    lng: -61.9982,
                    country: "Canada",
                    iso2: "CA",
                    iso3: "CAN",
                    admin_name: "Nova Scotia",
                    capital: "",
                    population: 6739,
                    id: 1124839247
                },
                {
                    city: "Gander",
                    city_ascii: "Gander",
                    lat: 48.95,
                    lng: -54.55,
                    country: "Canada",
                    iso2: "CA",
                    iso3: "CAN",
                    admin_name: "Newfoundland and Labrador",
                    capital: "",
                    population: 3345,
                    id: 1124310517
                },
                {
                    city: "Berens River",
                    city_ascii: "Berens River",
                    lat: 52.3666,
                    lng: -97.0333,
                    country: "Canada",
                    iso2: "CA",
                    iso3: "CAN",
                    admin_name: "Manitoba",
                    capital: "",
                    population: 892,
                    id: 1124806860
                },
                {
                    city: "Port-Menier",
                    city_ascii: "Port-Menier",
                    lat: 49.8226,
                    lng: -64.348,
                    country: "Canada",
                    iso2: "CA",
                    iso3: "CAN",
                    admin_name: "Québec",
                    capital: "",
                    population: 263,
                    id: 1124109240
                },
                {
                    city: "Wetaskiwin",
                    city_ascii: "Wetaskiwin",
                    lat: 52.9666,
                    lng: -113.3833,
                    country: "Canada",
                    iso2: "CA",
                    iso3: "CAN",
                    admin_name: "Alberta",
                    capital: "",
                    population: 11823,
                    id: 1124492484
                },
                {
                    city: "Shamattawa",
                    city_ascii: "Shamattawa",
                    lat: 55.8504,
                    lng: -92.0833,
                    country: "Canada",
                    iso2: "CA",
                    iso3: "CAN",
                    admin_name: "Manitoba",
                    capital: "",
                    population: 870,
                    id: 1124131561
                },
                {
                    city: "Steinbach",
                    city_ascii: "Steinbach",
                    lat: 49.5171,
                    lng: -96.6833,
                    country: "Canada",
                    iso2: "CA",
                    iso3: "CAN",
                    admin_name: "Manitoba",
                    capital: "",
                    population: 9729,
                    id: 1124152692
                },
                {
                    city: "Thunder Bay",
                    city_ascii: "Thunder Bay",
                    lat: 48.4462,
                    lng: -89.275,
                    country: "Canada",
                    iso2: "CA",
                    iso3: "CAN",
                    admin_name: "Ontario",
                    capital: "",
                    population: 99334,
                    id: 1124398712
                },
                {
                    city: "Oshawa",
                    city_ascii: "Oshawa",
                    lat: 43.88,
                    lng: -78.85,
                    country: "Canada",
                    iso2: "CA",
                    iso3: "CAN",
                    admin_name: "Ontario",
                    capital: "",
                    population: 450963,
                    id: 1124541904
                },
                {
                    city: "Chicoutimi",
                    city_ascii: "Chicoutimi",
                    lat: 48.4333,
                    lng: -71.0667,
                    country: "Canada",
                    iso2: "CA",
                    iso3: "CAN",
                    admin_name: "Québec",
                    capital: "",
                    population: 53940,
                    id: 1124426272
                },
                {
                    city: "Melville",
                    city_ascii: "Melville",
                    lat: 50.9333,
                    lng: -102.8,
                    country: "Canada",
                    iso2: "CA",
                    iso3: "CAN",
                    admin_name: "Saskatchewan",
                    capital: "",
                    population: 4279,
                    id: 1124823140
                },
                {
                    city: "Brooks",
                    city_ascii: "Brooks",
                    lat: 50.5671,
                    lng: -111.9,
                    country: "Canada",
                    iso2: "CA",
                    iso3: "CAN",
                    admin_name: "Alberta",
                    capital: "",
                    population: 14163,
                    id: 1124093123
                },
                {
                    city: "Dauphin",
                    city_ascii: "Dauphin",
                    lat: 51.15,
                    lng: -100.05,
                    country: "Canada",
                    iso2: "CA",
                    iso3: "CAN",
                    admin_name: "Manitoba",
                    capital: "",
                    population: 9077,
                    id: 1124144510
                },
                {
                    city: "Smithers",
                    city_ascii: "Smithers",
                    lat: 54.7666,
                    lng: -127.1666,
                    country: "Canada",
                    iso2: "CA",
                    iso3: "CAN",
                    admin_name: "British Columbia",
                    capital: "",
                    population: 6245,
                    id: 1124191574
                },
                {
                    city: "Terrace",
                    city_ascii: "Terrace",
                    lat: 54.5,
                    lng: -128.5833,
                    country: "Canada",
                    iso2: "CA",
                    iso3: "CAN",
                    admin_name: "British Columbia",
                    capital: "",
                    population: 19443,
                    id: 1124878479
                },
                {
                    city: "Lutselke",
                    city_ascii: "Lutselke",
                    lat: 62.4001,
                    lng: -110.7333,
                    country: "Canada",
                    iso2: "CA",
                    iso3: "CAN",
                    admin_name: "Northwest Territories",
                    capital: "",
                    population: 102,
                    id: 1124525451
                },
                {
                    city: "Resolute",
                    city_ascii: "Resolute",
                    lat: 74.6833,
                    lng: -94.9,
                    country: "Canada",
                    iso2: "CA",
                    iso3: "CAN",
                    admin_name: "Nunavut",
                    capital: "",
                    population: 250,
                    id: 1124211405
                },
                {
                    city: "Quesnel",
                    city_ascii: "Quesnel",
                    lat: 52.9837,
                    lng: -122.4833,
                    country: "Canada",
                    iso2: "CA",
                    iso3: "CAN",
                    admin_name: "British Columbia",
                    capital: "",
                    population: 13788,
                    id: 1124028015
                },
                {
                    city: "Island Lake",
                    city_ascii: "Island Lake",
                    lat: 53.9666,
                    lng: -94.7666,
                    country: "Canada",
                    iso2: "CA",
                    iso3: "CAN",
                    admin_name: "Manitoba",
                    capital: "",
                    population: 10,
                    id: 1124887306
                },
                {
                    city: "Halifax",
                    city_ascii: "Halifax",
                    lat: 44.65,
                    lng: -63.6,
                    country: "Canada",
                    iso2: "CA",
                    iso3: "CAN",
                    admin_name: "Nova Scotia",
                    capital: "admin",
                    population: 359111,
                    id: 1124130981
                },
                {
                    city: "Watson Lake",
                    city_ascii: "Watson Lake",
                    lat: 60.1166,
                    lng: -128.8,
                    country: "Canada",
                    iso2: "CA",
                    iso3: "CAN",
                    admin_name: "Yukon",
                    capital: "",
                    population: 802,
                    id: 1124162676
                },
                {
                    city: "Sydney",
                    city_ascii: "Sydney",
                    lat: 46.0661,
                    lng: -60.18,
                    country: "Canada",
                    iso2: "CA",
                    iso3: "CAN",
                    admin_name: "Nova Scotia",
                    capital: "",
                    population: 37538,
                    id: 1124205375
                },
                {
                    city: "Dawson Creek",
                    city_ascii: "Dawson Creek",
                    lat: 55.767,
                    lng: -120.2333,
                    country: "Canada",
                    iso2: "CA",
                    iso3: "CAN",
                    admin_name: "British Columbia",
                    capital: "",
                    population: 10802,
                    id: 1124081402
                },
                {
                    city: "Uranium City",
                    city_ascii: "Uranium City",
                    lat: 59.5666,
                    lng: -108.6166,
                    country: "Canada",
                    iso2: "CA",
                    iso3: "CAN",
                    admin_name: "Saskatchewan",
                    capital: "",
                    population: 89,
                    id: 1124993293
                },
                {
                    city: "Timmins",
                    city_ascii: "Timmins",
                    lat: 48.4666,
                    lng: -81.3333,
                    country: "Canada",
                    iso2: "CA",
                    iso3: "CAN",
                    admin_name: "Ontario",
                    capital: "",
                    population: 34974,
                    id: 1124760634
                },
                {
                    city: "Saskatoon",
                    city_ascii: "Saskatoon",
                    lat: 52.17,
                    lng: -106.67,
                    country: "Canada",
                    iso2: "CA",
                    iso3: "CAN",
                    admin_name: "Saskatchewan",
                    capital: "",
                    population: 198958,
                    id: 1124612546
                },
                {
                    city: "Iqaluit",
                    city_ascii: "Iqaluit",
                    lat: 63.7505,
                    lng: -68.5002,
                    country: "Canada",
                    iso2: "CA",
                    iso3: "CAN",
                    admin_name: "Nunavut",
                    capital: "admin",
                    population: 6124,
                    id: 1124379539
                },
                {
                    city: "Alert",
                    city_ascii: "Alert",
                    lat: 82.4833,
                    lng: -62.25,
                    country: "Canada",
                    iso2: "CA",
                    iso3: "CAN",
                    admin_name: "Nunavut",
                    capital: "",
                    population: 125,
                    id: 1124921853
                },
                {
                    city: "Thessalon",
                    city_ascii: "Thessalon",
                    lat: 46.25,
                    lng: -83.55,
                    country: "Canada",
                    iso2: "CA",
                    iso3: "CAN",
                    admin_name: "Ontario",
                    capital: "",
                    population: 1464,
                    id: 1124087342
                },
                {
                    city: "Yellowknife",
                    city_ascii: "Yellowknife",
                    lat: 62.442,
                    lng: -114.397,
                    country: "Canada",
                    iso2: "CA",
                    iso3: "CAN",
                    admin_name: "Northwest Territories",
                    capital: "admin",
                    population: 19234,
                    id: 1124208917
                },
                {
                    city: "Camrose",
                    city_ascii: "Camrose",
                    lat: 53.0167,
                    lng: -112.8166,
                    country: "Canada",
                    iso2: "CA",
                    iso3: "CAN",
                    admin_name: "Alberta",
                    capital: "",
                    population: 15808,
                    id: 1124351657
                },
                {
                    city: "Campbell River",
                    city_ascii: "Campbell River",
                    lat: 50.0171,
                    lng: -125.25,
                    country: "Canada",
                    iso2: "CA",
                    iso3: "CAN",
                    admin_name: "British Columbia",
                    capital: "",
                    population: 33430,
                    id: 1124851971
                },
                {
                    city: "Revelstoke",
                    city_ascii: "Revelstoke",
                    lat: 51.0005,
                    lng: -118.1833,
                    country: "Canada",
                    iso2: "CA",
                    iso3: "CAN",
                    admin_name: "British Columbia",
                    capital: "",
                    population: 7668,
                    id: 1124070926
                },
                {
                    city: "Meadow Lake",
                    city_ascii: "Meadow Lake",
                    lat: 54.1301,
                    lng: -108.4347,
                    country: "Canada",
                    iso2: "CA",
                    iso3: "CAN",
                    admin_name: "Saskatchewan",
                    capital: "",
                    population: 5882,
                    id: 1124434578
                },
                {
                    city: "Atikokan",
                    city_ascii: "Atikokan",
                    lat: 48.7504,
                    lng: -91.6166,
                    country: "Canada",
                    iso2: "CA",
                    iso3: "CAN",
                    admin_name: "Ontario",
                    capital: "",
                    population: 3625,
                    id: 1124868159
                },
                {
                    city: "Creston",
                    city_ascii: "Creston",
                    lat: 49.1,
                    lng: -116.5167,
                    country: "Canada",
                    iso2: "CA",
                    iso3: "CAN",
                    admin_name: "British Columbia",
                    capital: "",
                    population: 4816,
                    id: 1124204302
                },
                {
                    city: "Gillam",
                    city_ascii: "Gillam",
                    lat: 56.35,
                    lng: -94.7,
                    country: "Canada",
                    iso2: "CA",
                    iso3: "CAN",
                    admin_name: "Manitoba",
                    capital: "",
                    population: 1281,
                    id: 1124560722
                },
                {
                    city: "Cranbrook",
                    city_ascii: "Cranbrook",
                    lat: 49.5167,
                    lng: -115.7667,
                    country: "Canada",
                    iso2: "CA",
                    iso3: "CAN",
                    admin_name: "British Columbia",
                    capital: "",
                    population: 18610,
                    id: 1124937794
                },
                {
                    city: "Little Current",
                    city_ascii: "Little Current",
                    lat: 45.967,
                    lng: -81.9333,
                    country: "Canada",
                    iso2: "CA",
                    iso3: "CAN",
                    admin_name: "Ontario",
                    capital: "",
                    population: 1595,
                    id: 1124386809
                },
                {
                    city: "Calgary",
                    city_ascii: "Calgary",
                    lat: 51.083,
                    lng: -114.08,
                    country: "Canada",
                    iso2: "CA",
                    iso3: "CAN",
                    admin_name: "Alberta",
                    capital: "",
                    population: 1110000,
                    id: 1124690423
                },
                {
                    city: "Big Beaver House",
                    city_ascii: "Big Beaver House",
                    lat: 52.95,
                    lng: -89.8833,
                    country: "Canada",
                    iso2: "CA",
                    iso3: "CAN",
                    admin_name: "Ontario",
                    capital: "",
                    population: 10,
                    id: 1124557709
                },
                {
                    city: "Parry Sound",
                    city_ascii: "Parry Sound",
                    lat: 45.3337,
                    lng: -80.033,
                    country: "Canada",
                    iso2: "CA",
                    iso3: "CAN",
                    admin_name: "Ontario",
                    capital: "",
                    population: 7105,
                    id: 1124245809
                },
                {
                    city: "Kamloops",
                    city_ascii: "Kamloops",
                    lat: 50.6667,
                    lng: -120.3333,
                    country: "Canada",
                    iso2: "CA",
                    iso3: "CAN",
                    admin_name: "British Columbia",
                    capital: "",
                    population: 68714,
                    id: 1124735582
                },
                {
                    city: "Dolbeau",
                    city_ascii: "Dolbeau",
                    lat: 48.8666,
                    lng: -72.2333,
                    country: "Canada",
                    iso2: "CA",
                    iso3: "CAN",
                    admin_name: "Québec",
                    capital: "",
                    population: 13337,
                    id: 1124037070
                },
                {
                    city: "St. John's",
                    city_ascii: "St. John's",
                    lat: 47.585,
                    lng: -52.681,
                    country: "Canada",
                    iso2: "CA",
                    iso3: "CAN",
                    admin_name: "Newfoundland and Labrador",
                    capital: "admin",
                    population: 131469,
                    id: 1124741456
                },
                {
                    city: "Lansdowne House",
                    city_ascii: "Lansdowne House",
                    lat: 52.2166,
                    lng: -87.8833,
                    country: "Canada",
                    iso2: "CA",
                    iso3: "CAN",
                    admin_name: "Ontario",
                    capital: "",
                    population: 120,
                    id: 1124130748
                },
                {
                    city: "Paulatuk",
                    city_ascii: "Paulatuk",
                    lat: 69.3833,
                    lng: -123.9833,
                    country: "Canada",
                    iso2: "CA",
                    iso3: "CAN",
                    admin_name: "Northwest Territories",
                    capital: "",
                    population: 294,
                    id: 1124599203
                },
                {
                    city: "Attawapiskat",
                    city_ascii: "Attawapiskat",
                    lat: 52.9166,
                    lng: -82.4333,
                    country: "Canada",
                    iso2: "CA",
                    iso3: "CAN",
                    admin_name: "Ontario",
                    capital: "",
                    population: 1802,
                    id: 1124363788
                },
                {
                    city: "Rimouski",
                    city_ascii: "Rimouski",
                    lat: 48.4337,
                    lng: -68.5167,
                    country: "Canada",
                    iso2: "CA",
                    iso3: "CAN",
                    admin_name: "Québec",
                    capital: "",
                    population: 35584,
                    id: 1124433645
                },
                {
                    city: "Grand Prairie",
                    city_ascii: "Grand Prairie",
                    lat: 55.1666,
                    lng: -118.8,
                    country: "Canada",
                    iso2: "CA",
                    iso3: "CAN",
                    admin_name: "Alberta",
                    capital: "",
                    population: 41462,
                    id: 1124505481
                },
                {
                    city: "La Sarre",
                    city_ascii: "La Sarre",
                    lat: 48.8,
                    lng: -79.2,
                    country: "Canada",
                    iso2: "CA",
                    iso3: "CAN",
                    admin_name: "Québec",
                    capital: "",
                    population: 7206,
                    id: 1124902252
                },
                {
                    city: "Mingan",
                    city_ascii: "Mingan",
                    lat: 50.3018,
                    lng: -64.0173,
                    country: "Canada",
                    iso2: "CA",
                    iso3: "CAN",
                    admin_name: "Québec",
                    capital: "",
                    population: 588,
                    id: 1124305694
                },
                {
                    city: "Prince Albert",
                    city_ascii: "Prince Albert",
                    lat: 53.2,
                    lng: -105.75,
                    country: "Canada",
                    iso2: "CA",
                    iso3: "CAN",
                    admin_name: "Saskatchewan",
                    capital: "",
                    population: 34609,
                    id: 1124158154
                },
                {
                    city: "Moose Jaw",
                    city_ascii: "Moose Jaw",
                    lat: 50.4,
                    lng: -105.55,
                    country: "Canada",
                    iso2: "CA",
                    iso3: "CAN",
                    admin_name: "Saskatchewan",
                    capital: "",
                    population: 32166,
                    id: 1124806868
                },
                {
                    city: "Powell River",
                    city_ascii: "Powell River",
                    lat: 49.8837,
                    lng: -124.55,
                    country: "Canada",
                    iso2: "CA",
                    iso3: "CAN",
                    admin_name: "British Columbia",
                    capital: "",
                    population: 12779,
                    id: 1124154376
                },
                {
                    city: "Pangnirtung",
                    city_ascii: "Pangnirtung",
                    lat: 66.1333,
                    lng: -65.75,
                    country: "Canada",
                    iso2: "CA",
                    iso3: "CAN",
                    admin_name: "Nunavut",
                    capital: "",
                    population: 1320,
                    id: 1124731886
                },
                {
                    city: "Nelson",
                    city_ascii: "Nelson",
                    lat: 49.4837,
                    lng: -117.2833,
                    country: "Canada",
                    iso2: "CA",
                    iso3: "CAN",
                    admin_name: "British Columbia",
                    capital: "",
                    population: 11779,
                    id: 1124361295
                },
                {
                    city: "Peace River",
                    city_ascii: "Peace River",
                    lat: 56.2333,
                    lng: -117.2833,
                    country: "Canada",
                    iso2: "CA",
                    iso3: "CAN",
                    admin_name: "Alberta",
                    capital: "",
                    population: 5340,
                    id: 1124941936
                },
                {
                    city: "Cobalt",
                    city_ascii: "Cobalt",
                    lat: 47.3837,
                    lng: -79.6833,
                    country: "Canada",
                    iso2: "CA",
                    iso3: "CAN",
                    admin_name: "Ontario",
                    capital: "",
                    population: 1372,
                    id: 1124248298
                },
                {
                    city: "New Glasgow",
                    city_ascii: "New Glasgow",
                    lat: 45.5833,
                    lng: -62.6333,
                    country: "Canada",
                    iso2: "CA",
                    iso3: "CAN",
                    admin_name: "Nova Scotia",
                    capital: "",
                    population: 20322,
                    id: 1124760188
                },
                {
                    city: "Arctic Bay",
                    city_ascii: "Arctic Bay",
                    lat: 73.0333,
                    lng: -85.1666,
                    country: "Canada",
                    iso2: "CA",
                    iso3: "CAN",
                    admin_name: "Nunavut",
                    capital: "",
                    population: 604,
                    id: 1124556203
                },
                {
                    city: "Burwash Landing",
                    city_ascii: "Burwash Landing",
                    lat: 61.3504,
                    lng: -139,
                    country: "Canada",
                    iso2: "CA",
                    iso3: "CAN",
                    admin_name: "Yukon",
                    capital: "",
                    population: 73,
                    id: 1124021816
                },
                {
                    city: "Saint-Georges",
                    city_ascii: "Saint-Georges",
                    lat: 46.1171,
                    lng: -70.6667,
                    country: "Canada",
                    iso2: "CA",
                    iso3: "CAN",
                    admin_name: "Québec",
                    capital: "",
                    population: 26149,
                    id: 1124154865
                },
                {
                    city: "Vancouver",
                    city_ascii: "Vancouver",
                    lat: 49.2734,
                    lng: -123.1216,
                    country: "Canada",
                    iso2: "CA",
                    iso3: "CAN",
                    admin_name: "British Columbia",
                    capital: "",
                    population: 2313328,
                    id: 1124825478
                },
                {
                    city: "Medicine Hat",
                    city_ascii: "Medicine Hat",
                    lat: 50.0333,
                    lng: -110.6833,
                    country: "Canada",
                    iso2: "CA",
                    iso3: "CAN",
                    admin_name: "Alberta",
                    capital: "",
                    population: 63138,
                    id: 1124303972
                },
                {
                    city: "Port Hope Simpson",
                    city_ascii: "Port Hope Simpson",
                    lat: 52.5333,
                    lng: -56.3,
                    country: "Canada",
                    iso2: "CA",
                    iso3: "CAN",
                    admin_name: "Newfoundland and Labrador",
                    capital: "",
                    population: 197,
                    id: 1124159024
                },
                {
                    city: "Deer Lake",
                    city_ascii: "Deer Lake",
                    lat: 49.1744,
                    lng: -57.4269,
                    country: "Canada",
                    iso2: "CA",
                    iso3: "CAN",
                    admin_name: "Newfoundland and Labrador",
                    capital: "",
                    population: 4163,
                    id: 1124841556
                },
                {
                    city: "Vegreville",
                    city_ascii: "Vegreville",
                    lat: 53.5,
                    lng: -112.05,
                    country: "Canada",
                    iso2: "CA",
                    iso3: "CAN",
                    admin_name: "Alberta",
                    capital: "",
                    population: 5813,
                    id: 1124534321
                },
                {
                    city: "Bella Bella",
                    city_ascii: "Bella Bella",
                    lat: 52.1484,
                    lng: -128.1173,
                    country: "Canada",
                    iso2: "CA",
                    iso3: "CAN",
                    admin_name: "British Columbia",
                    capital: "",
                    population: 1400,
                    id: 1124480592
                },
                {
                    city: "Rankin Inlet",
                    city_ascii: "Rankin Inlet",
                    lat: 62.8167,
                    lng: -92.0953,
                    country: "Canada",
                    iso2: "CA",
                    iso3: "CAN",
                    admin_name: "Nunavut",
                    capital: "",
                    population: 2472,
                    id: 1124057160
                },
                {
                    city: "Owen Sound",
                    city_ascii: "Owen Sound",
                    lat: 44.5666,
                    lng: -80.85,
                    country: "Canada",
                    iso2: "CA",
                    iso3: "CAN",
                    admin_name: "Ontario",
                    capital: "",
                    population: 22625,
                    id: 1124623613
                },
                {
                    city: "Lac La Biche",
                    city_ascii: "Lac La Biche",
                    lat: 54.7719,
                    lng: -111.9647,
                    country: "Canada",
                    iso2: "CA",
                    iso3: "CAN",
                    admin_name: "Alberta",
                    capital: "",
                    population: 2986,
                    id: 1124501918
                },
                {
                    city: "Hopedale",
                    city_ascii: "Hopedale",
                    lat: 55.45,
                    lng: -60.2167,
                    country: "Canada",
                    iso2: "CA",
                    iso3: "CAN",
                    admin_name: "Newfoundland and Labrador",
                    capital: "",
                    population: 442,
                    id: 1124338710
                },
                {
                    city: "Norway House",
                    city_ascii: "Norway House",
                    lat: 53.9666,
                    lng: -97.8333,
                    country: "Canada",
                    iso2: "CA",
                    iso3: "CAN",
                    admin_name: "Manitoba",
                    capital: "",
                    population: 6000,
                    id: 1124567295
                },
                {
                    city: "Coral Harbour",
                    city_ascii: "Coral Harbour",
                    lat: 64.1538,
                    lng: -83.1766,
                    country: "Canada",
                    iso2: "CA",
                    iso3: "CAN",
                    admin_name: "Nunavut",
                    capital: "",
                    population: 834,
                    id: 1124748087
                },
                {
                    city: "Kugluktuk",
                    city_ascii: "Kugluktuk",
                    lat: 67.7987,
                    lng: -115.1254,
                    country: "Canada",
                    iso2: "CA",
                    iso3: "CAN",
                    admin_name: "Nunavut",
                    capital: "",
                    population: 1302,
                    id: 1124349489
                },
                {
                    city: "Norman Wells",
                    city_ascii: "Norman Wells",
                    lat: 65.2837,
                    lng: -126.85,
                    country: "Canada",
                    iso2: "CA",
                    iso3: "CAN",
                    admin_name: "Northwest Territories",
                    capital: "",
                    population: 1027,
                    id: 1124868628
                },
                {
                    city: "Fort Resolution",
                    city_ascii: "Fort Resolution",
                    lat: 61.1666,
                    lng: -113.683,
                    country: "Canada",
                    iso2: "CA",
                    iso3: "CAN",
                    admin_name: "Northwest Territories",
                    capital: "",
                    population: 448,
                    id: 1124395645
                },
                {
                    city: "Fort McPherson",
                    city_ascii: "Fort McPherson",
                    lat: 67.4915,
                    lng: -134.895,
                    country: "Canada",
                    iso2: "CA",
                    iso3: "CAN",
                    admin_name: "Northwest Territories",
                    capital: "",
                    population: 1069,
                    id: 1124984904
                },
                {
                    city: "Forteau",
                    city_ascii: "Forteau",
                    lat: 51.4504,
                    lng: -56.95,
                    country: "Canada",
                    iso2: "CA",
                    iso3: "CAN",
                    admin_name: "Newfoundland and Labrador",
                    capital: "",
                    population: 448,
                    id: 1124235945
                },
                {
                    city: "Kuujjuaq",
                    city_ascii: "Kuujjuaq",
                    lat: 58.1,
                    lng: -68.4,
                    country: "Canada",
                    iso2: "CA",
                    iso3: "CAN",
                    admin_name: "Québec",
                    capital: "",
                    population: 1273,
                    id: 1124705411
                },
                {
                    city: "Cape Dorset",
                    city_ascii: "Cape Dorset",
                    lat: 64.3125,
                    lng: -76.5386,
                    country: "Canada",
                    iso2: "CA",
                    iso3: "CAN",
                    admin_name: "Nunavut",
                    capital: "",
                    population: 1326,
                    id: 1124646146
                },
                {
                    city: "Cartwright",
                    city_ascii: "Cartwright",
                    lat: 53.7014,
                    lng: -57.0121,
                    country: "Canada",
                    iso2: "CA",
                    iso3: "CAN",
                    admin_name: "Newfoundland and Labrador",
                    capital: "",
                    population: 505,
                    id: 1124810278
                },
                {
                    city: "Flin Flon",
                    city_ascii: "Flin Flon",
                    lat: 54.7666,
                    lng: -101.8833,
                    country: "Canada",
                    iso2: "CA",
                    iso3: "CAN",
                    admin_name: "Manitoba",
                    capital: "",
                    population: 6393,
                    id: 1124500458
                },
                {
                    city: "Holman",
                    city_ascii: "Holman",
                    lat: 70.7334,
                    lng: -117.75,
                    country: "Canada",
                    iso2: "CA",
                    iso3: "CAN",
                    admin_name: "Northwest Territories",
                    capital: "",
                    population: 500,
                    id: 1124762461
                },
                {
                    city: "Pembroke",
                    city_ascii: "Pembroke",
                    lat: 45.8503,
                    lng: -77.1166,
                    country: "Canada",
                    iso2: "CA",
                    iso3: "CAN",
                    admin_name: "Ontario",
                    capital: "",
                    population: 15551,
                    id: 1124877940
                },
                {
                    city: "Baker Lake",
                    city_ascii: "Baker Lake",
                    lat: 64.317,
                    lng: -96.0167,
                    country: "Canada",
                    iso2: "CA",
                    iso3: "CAN",
                    admin_name: "Nunavut",
                    capital: "",
                    population: 1584,
                    id: 1124826935
                },
                {
                    city: "Moosonee",
                    city_ascii: "Moosonee",
                    lat: 51.2806,
                    lng: -80.658,
                    country: "Canada",
                    iso2: "CA",
                    iso3: "CAN",
                    admin_name: "Ontario",
                    capital: "",
                    population: 1725,
                    id: 1124592907
                },
                {
                    city: "Dryden",
                    city_ascii: "Dryden",
                    lat: 49.7833,
                    lng: -92.8333,
                    country: "Canada",
                    iso2: "CA",
                    iso3: "CAN",
                    admin_name: "Ontario",
                    capital: "",
                    population: 7862,
                    id: 1124295097
                },
                {
                    city: "Corner Brook",
                    city_ascii: "Corner Brook",
                    lat: 48.95,
                    lng: -57.9333,
                    country: "Canada",
                    iso2: "CA",
                    iso3: "CAN",
                    admin_name: "Newfoundland and Labrador",
                    capital: "",
                    population: 20791,
                    id: 1124244792
                },
                {
                    city: "Kelowna",
                    city_ascii: "Kelowna",
                    lat: 49.9,
                    lng: -119.4833,
                    country: "Canada",
                    iso2: "CA",
                    iso3: "CAN",
                    admin_name: "British Columbia",
                    capital: "",
                    population: 125109,
                    id: 1124080626
                },
                {
                    city: "Fort Smith",
                    city_ascii: "Fort Smith",
                    lat: 60,
                    lng: -111.8833,
                    country: "Canada",
                    iso2: "CA",
                    iso3: "CAN",
                    admin_name: "Northwest Territories",
                    capital: "",
                    population: 518,
                    id: 1124491408
                },
                {
                    city: "Fort Severn",
                    city_ascii: "Fort Severn",
                    lat: 55.9833,
                    lng: -87.65,
                    country: "Canada",
                    iso2: "CA",
                    iso3: "CAN",
                    admin_name: "Ontario",
                    capital: "",
                    population: 125,
                    id: 1124513059
                },
                {
                    city: "Mont-Laurier",
                    city_ascii: "Mont-Laurier",
                    lat: 46.5504,
                    lng: -75.5,
                    country: "Canada",
                    iso2: "CA",
                    iso3: "CAN",
                    admin_name: "Québec",
                    capital: "",
                    population: 11642,
                    id: 1124355399
                },
                {
                    city: "Channel-Port aux Basques",
                    city_ascii: "Channel-Port aux Basques",
                    lat: 47.567,
                    lng: -59.15,
                    country: "Canada",
                    iso2: "CA",
                    iso3: "CAN",
                    admin_name: "Newfoundland and Labrador",
                    capital: "",
                    population: 4220,
                    id: 1124993496
                },
                {
                    city: "Kindersley",
                    city_ascii: "Kindersley",
                    lat: 51.467,
                    lng: -109.1333,
                    country: "Canada",
                    iso2: "CA",
                    iso3: "CAN",
                    admin_name: "Saskatchewan",
                    capital: "",
                    population: 4383,
                    id: 1124343190
                },
                {
                    city: "Igloolik",
                    city_ascii: "Igloolik",
                    lat: 69.2565,
                    lng: -81.7936,
                    country: "Canada",
                    iso2: "CA",
                    iso3: "CAN",
                    admin_name: "Nunavut",
                    capital: "",
                    population: 1612,
                    id: 1124253277
                },
                {
                    city: "Hudson Bay",
                    city_ascii: "Hudson Bay",
                    lat: 52.8504,
                    lng: -102.3833,
                    country: "Canada",
                    iso2: "CA",
                    iso3: "CAN",
                    admin_name: "Saskatchewan",
                    capital: "",
                    population: 2157,
                    id: 1124151446
                },
                {
                    city: "Courtenay",
                    city_ascii: "Courtenay",
                    lat: 49.6833,
                    lng: -125,
                    country: "Canada",
                    iso2: "CA",
                    iso3: "CAN",
                    admin_name: "British Columbia",
                    capital: "",
                    population: 32793,
                    id: 1124324905
                },
                {
                    city: "Mistassini",
                    city_ascii: "Mistassini",
                    lat: 50.4171,
                    lng: -73.8666,
                    country: "Canada",
                    iso2: "CA",
                    iso3: "CAN",
                    admin_name: "Québec",
                    capital: "",
                    population: 2645,
                    id: 1124591114
                },
                {
                    city: "Kingston",
                    city_ascii: "Kingston",
                    lat: 44.2337,
                    lng: -76.4833,
                    country: "Canada",
                    iso2: "CA",
                    iso3: "CAN",
                    admin_name: "Ontario",
                    capital: "",
                    population: 114195,
                    id: 1124437097
                },
                {
                    city: "Eastmain",
                    city_ascii: "Eastmain",
                    lat: 52.2333,
                    lng: -78.5167,
                    country: "Canada",
                    iso2: "CA",
                    iso3: "CAN",
                    admin_name: "Québec",
                    capital: "",
                    population: 335,
                    id: 1124594875
                },
                {
                    city: "Baie-Comeau",
                    city_ascii: "Baie-Comeau",
                    lat: 49.2227,
                    lng: -68.158,
                    country: "Canada",
                    iso2: "CA",
                    iso3: "CAN",
                    admin_name: "Québec",
                    capital: "",
                    population: 10435,
                    id: 1124859576
                },
                {
                    city: "North Bay",
                    city_ascii: "North Bay",
                    lat: 46.3,
                    lng: -79.45,
                    country: "Canada",
                    iso2: "CA",
                    iso3: "CAN",
                    admin_name: "Ontario",
                    capital: "",
                    population: 50170,
                    id: 1124058496
                },
                {
                    city: "North Battleford",
                    city_ascii: "North Battleford",
                    lat: 52.7666,
                    lng: -108.2833,
                    country: "Canada",
                    iso2: "CA",
                    iso3: "CAN",
                    admin_name: "Saskatchewan",
                    capital: "",
                    population: 19440,
                    id: 1124789635
                },
                {
                    city: "Grise Fiord",
                    city_ascii: "Grise Fiord",
                    lat: 76.4417,
                    lng: -82.95,
                    country: "Canada",
                    iso2: "CA",
                    iso3: "CAN",
                    admin_name: "Nunavut",
                    capital: "",
                    population: 23,
                    id: 1124072601
                },
                {
                    city: "Hay River",
                    city_ascii: "Hay River",
                    lat: 60.85,
                    lng: -115.7,
                    country: "Canada",
                    iso2: "CA",
                    iso3: "CAN",
                    admin_name: "Northwest Territories",
                    capital: "",
                    population: 3900,
                    id: 1124721803
                },
                {
                    city: "Stony Rapids",
                    city_ascii: "Stony Rapids",
                    lat: 59.2666,
                    lng: -105.8333,
                    country: "Canada",
                    iso2: "CA",
                    iso3: "CAN",
                    admin_name: "Saskatchewan",
                    capital: "",
                    population: 152,
                    id: 1124279421
                },
                {
                    city: "Hinton",
                    city_ascii: "Hinton",
                    lat: 53.4,
                    lng: -117.5834,
                    country: "Canada",
                    iso2: "CA",
                    iso3: "CAN",
                    admin_name: "Alberta",
                    capital: "",
                    population: 10265,
                    id: 1124131074
                },
                {
                    city: "Toronto",
                    city_ascii: "Toronto",
                    lat: 43.7,
                    lng: -79.42,
                    country: "Canada",
                    iso2: "CA",
                    iso3: "CAN",
                    admin_name: "Ontario",
                    capital: "admin",
                    population: 5213000,
                    id: 1124279679
                },
                {
                    city: "Edmonton",
                    city_ascii: "Edmonton",
                    lat: 53.55,
                    lng: -113.5,
                    country: "Canada",
                    iso2: "CA",
                    iso3: "CAN",
                    admin_name: "Alberta",
                    capital: "admin",
                    population: 1058000,
                    id: 1124290735
                },
                {
                    city: "Gjoa Haven",
                    city_ascii: "Gjoa Haven",
                    lat: 68.6333,
                    lng: -95.9167,
                    country: "Canada",
                    iso2: "CA",
                    iso3: "CAN",
                    admin_name: "Nunavut",
                    capital: "",
                    population: 1109,
                    id: 1124942230
                },
                {
                    city: "Fort Simpson",
                    city_ascii: "Fort Simpson",
                    lat: 61.85,
                    lng: -121.3333,
                    country: "Canada",
                    iso2: "CA",
                    iso3: "CAN",
                    admin_name: "Northwest Territories",
                    capital: "",
                    population: 283,
                    id: 1124669512
                },
                {
                    city: "Naujaat",
                    city_ascii: "Repulse Bay",
                    lat: 66.5295,
                    lng: -86.2829,
                    country: "Canada",
                    iso2: "CA",
                    iso3: "CAN",
                    admin_name: "Nunavut",
                    capital: "",
                    population: 1000,
                    id: 1124398936
                },
                {
                    city: "Lethbridge",
                    city_ascii: "Lethbridge",
                    lat: 49.7005,
                    lng: -112.8333,
                    country: "Canada",
                    iso2: "CA",
                    iso3: "CAN",
                    admin_name: "Alberta",
                    capital: "",
                    population: 70617,
                    id: 1124321200
                },
                {
                    city: "Sudbury",
                    city_ascii: "Sudbury",
                    lat: 46.5,
                    lng: -80.9666,
                    country: "Canada",
                    iso2: "CA",
                    iso3: "CAN",
                    admin_name: "Ontario",
                    capital: "",
                    population: 157857,
                    id: 1124539524
                },
                {
                    city: "Swift Current",
                    city_ascii: "Swift Current",
                    lat: 50.2837,
                    lng: -107.7666,
                    country: "Canada",
                    iso2: "CA",
                    iso3: "CAN",
                    admin_name: "Saskatchewan",
                    capital: "",
                    population: 14906,
                    id: 1124460875
                },
                {
                    city: "Regina",
                    city_ascii: "Regina",
                    lat: 50.45,
                    lng: -104.617,
                    country: "Canada",
                    iso2: "CA",
                    iso3: "CAN",
                    admin_name: "Saskatchewan",
                    capital: "admin",
                    population: 176183,
                    id: 1124342541
                },
                {
                    city: "Cornwall",
                    city_ascii: "Cornwall",
                    lat: 45.0171,
                    lng: -74.7333,
                    country: "Canada",
                    iso2: "CA",
                    iso3: "CAN",
                    admin_name: "Ontario",
                    capital: "",
                    population: 48821,
                    id: 1124938303
                },
                {
                    city: "Taloyoak",
                    city_ascii: "Taloyoak",
                    lat: 69.5333,
                    lng: -93.5333,
                    country: "Canada",
                    iso2: "CA",
                    iso3: "CAN",
                    admin_name: "Nunavut",
                    capital: "",
                    population: 774,
                    id: 1124099415
                },
                {
                    city: "Tuktoyaktuk",
                    city_ascii: "Tuktoyaktuk",
                    lat: 69.4548,
                    lng: -133.0492,
                    country: "Canada",
                    iso2: "CA",
                    iso3: "CAN",
                    admin_name: "Northwest Territories",
                    capital: "",
                    population: 929,
                    id: 1124437778
                },
                {
                    city: "Deer Lake",
                    city_ascii: "Deer Lake",
                    lat: 52.617,
                    lng: -94.0666,
                    country: "Canada",
                    iso2: "CA",
                    iso3: "CAN",
                    admin_name: "Ontario",
                    capital: "",
                    population: 3743,
                    id: 1124585613
                },
                {
                    city: "London",
                    city_ascii: "London",
                    lat: 42.97,
                    lng: -81.25,
                    country: "Canada",
                    iso2: "CA",
                    iso3: "CAN",
                    admin_name: "Ontario",
                    capital: "",
                    population: 346765,
                    id: 1124469960
                },
                {
                    city: "Natashquan",
                    city_ascii: "Natashquan",
                    lat: 50.1913,
                    lng: -61.8107,
                    country: "Canada",
                    iso2: "CA",
                    iso3: "CAN",
                    admin_name: "Québec",
                    capital: "",
                    population: 722,
                    id: 1124631749
                },
                {
                    city: "Cap-Chat",
                    city_ascii: "Cap-Chat",
                    lat: 49.1,
                    lng: -66.6833,
                    country: "Canada",
                    iso2: "CA",
                    iso3: "CAN",
                    admin_name: "Québec",
                    capital: "",
                    population: 1484,
                    id: 1124662875
                },
                {
                    city: "Orillia",
                    city_ascii: "Orillia",
                    lat: 44.6,
                    lng: -79.4167,
                    country: "Canada",
                    iso2: "CA",
                    iso3: "CAN",
                    admin_name: "Ontario",
                    capital: "",
                    population: 37483,
                    id: 1124049830
                },
                {
                    city: "Kenora",
                    city_ascii: "Kenora",
                    lat: 49.7667,
                    lng: -94.4666,
                    country: "Canada",
                    iso2: "CA",
                    iso3: "CAN",
                    admin_name: "Ontario",
                    capital: "",
                    population: 10852,
                    id: 1124844807
                },
                {
                    city: "Barrie",
                    city_ascii: "Barrie",
                    lat: 44.3838,
                    lng: -79.7,
                    country: "Canada",
                    iso2: "CA",
                    iso3: "CAN",
                    admin_name: "Ontario",
                    capital: "",
                    population: 182041,
                    id: 1124340223
                },
                {
                    city: "Sherbrooke",
                    city_ascii: "Sherbrooke",
                    lat: 45.4,
                    lng: -71.9,
                    country: "Canada",
                    iso2: "CA",
                    iso3: "CAN",
                    admin_name: "Québec",
                    capital: "",
                    population: 139652,
                    id: 1124559506
                },
                {
                    city: "St. Anthony",
                    city_ascii: "St. Anthony",
                    lat: 51.3837,
                    lng: -55.6,
                    country: "Canada",
                    iso2: "CA",
                    iso3: "CAN",
                    admin_name: "Newfoundland and Labrador",
                    capital: "",
                    population: 224,
                    id: 1124808047
                },
                {
                    city: "Rigolet",
                    city_ascii: "Rigolet",
                    lat: 54.1766,
                    lng: -58.4473,
                    country: "Canada",
                    iso2: "CA",
                    iso3: "CAN",
                    admin_name: "Newfoundland and Labrador",
                    capital: "",
                    population: 124,
                    id: 1124015130
                },
                {
                    city: "Fort Good Hope",
                    city_ascii: "Fort Good Hope",
                    lat: 66.2666,
                    lng: -128.6333,
                    country: "Canada",
                    iso2: "CA",
                    iso3: "CAN",
                    admin_name: "Northwest Territories",
                    capital: "",
                    population: 597,
                    id: 1124011380
                },
                {
                    city: "La Scie",
                    city_ascii: "La Scie",
                    lat: 49.967,
                    lng: -55.583,
                    country: "Canada",
                    iso2: "CA",
                    iso3: "CAN",
                    admin_name: "Newfoundland and Labrador",
                    capital: "",
                    population: 817,
                    id: 1124371570
                },
                {
                    city: "Fort St. John",
                    city_ascii: "Fort St. John",
                    lat: 56.25,
                    lng: -120.8333,
                    country: "Canada",
                    iso2: "CA",
                    iso3: "CAN",
                    admin_name: "British Columbia",
                    capital: "",
                    population: 18776,
                    id: 1124517495
                },
                {
                    city: "Marathon",
                    city_ascii: "Marathon",
                    lat: 48.7504,
                    lng: -86.3667,
                    country: "Canada",
                    iso2: "CA",
                    iso3: "CAN",
                    admin_name: "Ontario",
                    capital: "",
                    population: 4627,
                    id: 1124974800
                },
                {
                    city: "Gaspé",
                    city_ascii: "Gaspe",
                    lat: 48.8373,
                    lng: -64.4934,
                    country: "Canada",
                    iso2: "CA",
                    iso3: "CAN",
                    admin_name: "Québec",
                    capital: "",
                    population: 3677,
                    id: 1124212754
                },
                {
                    city: "Nelson House",
                    city_ascii: "Nelson House",
                    lat: 55.8005,
                    lng: -98.85,
                    country: "Canada",
                    iso2: "CA",
                    iso3: "CAN",
                    admin_name: "Manitoba",
                    capital: "",
                    population: 2500,
                    id: 1124119363
                },
                {
                    city: "Lillooet",
                    city_ascii: "Lillooet",
                    lat: 50.6837,
                    lng: -121.9333,
                    country: "Canada",
                    iso2: "CA",
                    iso3: "CAN",
                    admin_name: "British Columbia",
                    capital: "",
                    population: 2893,
                    id: 1124632130
                },
                {
                    city: "Fort McMurray",
                    city_ascii: "Fort McMurray",
                    lat: 56.7333,
                    lng: -111.3833,
                    country: "Canada",
                    iso2: "CA",
                    iso3: "CAN",
                    admin_name: "Alberta",
                    capital: "",
                    population: 21863,
                    id: 1124169385
                },
                {
                    city: "Jasper",
                    city_ascii: "Jasper",
                    lat: 52.8833,
                    lng: -118.0834,
                    country: "Canada",
                    iso2: "CA",
                    iso3: "CAN",
                    admin_name: "Alberta",
                    capital: "",
                    population: 3907,
                    id: 1124533812
                },
                {
                    city: "Buchans",
                    city_ascii: "Buchans",
                    lat: 48.817,
                    lng: -56.8666,
                    country: "Canada",
                    iso2: "CA",
                    iso3: "CAN",
                    admin_name: "Newfoundland and Labrador",
                    capital: "",
                    population: 685,
                    id: 1124564223
                },
                {
                    city: "Stettler",
                    city_ascii: "Stettler",
                    lat: 52.333,
                    lng: -112.6833,
                    country: "Canada",
                    iso2: "CA",
                    iso3: "CAN",
                    admin_name: "Alberta",
                    capital: "",
                    population: 5494,
                    id: 1124010388
                },
                {
                    city: "La Ronge",
                    city_ascii: "La Ronge",
                    lat: 55.1,
                    lng: -105.3,
                    country: "Canada",
                    iso2: "CA",
                    iso3: "CAN",
                    admin_name: "Saskatchewan",
                    capital: "",
                    population: 3783,
                    id: 1124763455
                },
                {
                    city: "Brochet",
                    city_ascii: "Brochet",
                    lat: 57.8832,
                    lng: -101.6666,
                    country: "Canada",
                    iso2: "CA",
                    iso3: "CAN",
                    admin_name: "Manitoba",
                    capital: "",
                    population: 278,
                    id: 1124164486
                },
                {
                    city: "Baddeck",
                    city_ascii: "Baddeck",
                    lat: 46.1,
                    lng: -60.754,
                    country: "Canada",
                    iso2: "CA",
                    iso3: "CAN",
                    admin_name: "Nova Scotia",
                    capital: "",
                    population: 852,
                    id: 1124594988
                },
                {
                    city: "Pond Inlet",
                    city_ascii: "Pond Inlet",
                    lat: 72.685,
                    lng: -78.0001,
                    country: "Canada",
                    iso2: "CA",
                    iso3: "CAN",
                    admin_name: "Nunavut",
                    capital: "",
                    population: 1549,
                    id: 1124788973
                },
                {
                    city: "St-Augustin",
                    city_ascii: "St-Augustin",
                    lat: 51.2423,
                    lng: -58.647,
                    country: "Canada",
                    iso2: "CA",
                    iso3: "CAN",
                    admin_name: "Québec",
                    capital: "",
                    population: 3961,
                    id: 1124425707
                },
                {
                    city: "Gimli",
                    city_ascii: "Gimli",
                    lat: 50.6333,
                    lng: -97,
                    country: "Canada",
                    iso2: "CA",
                    iso3: "CAN",
                    admin_name: "Manitoba",
                    capital: "",
                    population: 2623,
                    id: 1124472413
                },
                {
                    city: "Red Lake",
                    city_ascii: "Red Lake",
                    lat: 51.0337,
                    lng: -93.8333,
                    country: "Canada",
                    iso2: "CA",
                    iso3: "CAN",
                    admin_name: "Ontario",
                    capital: "",
                    population: 1765,
                    id: 1124856215
                },
                {
                    city: "Stephenville",
                    city_ascii: "Stephenville",
                    lat: 48.5504,
                    lng: -58.5666,
                    country: "Canada",
                    iso2: "CA",
                    iso3: "CAN",
                    admin_name: "Newfoundland and Labrador",
                    capital: "",
                    population: 7054,
                    id: 1124000201
                },
                {
                    city: "Ennadai",
                    city_ascii: "Ennadai",
                    lat: 61.1333,
                    lng: -100.8833,
                    country: "Canada",
                    iso2: "CA",
                    iso3: "CAN",
                    admin_name: "Nunavut",
                    capital: "",
                    population: 0,
                    id: 1124019423
                },
                {
                    city: "Happy Valley - Goose Bay",
                    city_ascii: "Happy Valley - Goose Bay",
                    lat: 53.3,
                    lng: -60.3,
                    country: "Canada",
                    iso2: "CA",
                    iso3: "CAN",
                    admin_name: "Newfoundland and Labrador",
                    capital: "",
                    population: 7572,
                    id: 1124879731
                },
                {
                    city: "Williams Lake",
                    city_ascii: "Williams Lake",
                    lat: 52.1166,
                    lng: -122.15,
                    country: "Canada",
                    iso2: "CA",
                    iso3: "CAN",
                    admin_name: "British Columbia",
                    capital: "",
                    population: 14168,
                    id: 1124821980
                },
                {
                    city: "Prince Rupert",
                    city_ascii: "Prince Rupert",
                    lat: 54.3167,
                    lng: -130.33,
                    country: "Canada",
                    iso2: "CA",
                    iso3: "CAN",
                    admin_name: "British Columbia",
                    capital: "",
                    population: 14708,
                    id: 1124847707
                },
                {
                    city: "Chilliwack",
                    city_ascii: "Chilliwack",
                    lat: 49.1666,
                    lng: -121.95,
                    country: "Canada",
                    iso2: "CA",
                    iso3: "CAN",
                    admin_name: "British Columbia",
                    capital: "",
                    population: 51942,
                    id: 1124531262
                },
                {
                    city: "Radisson",
                    city_ascii: "Radisson",
                    lat: 53.7836,
                    lng: -77.6166,
                    country: "Canada",
                    iso2: "CA",
                    iso3: "CAN",
                    admin_name: "Québec",
                    capital: "",
                    population: 270,
                    id: 1124508471
                },
                {
                    city: "Churchill",
                    city_ascii: "Churchill",
                    lat: 58.766,
                    lng: -94.166,
                    country: "Canada",
                    iso2: "CA",
                    iso3: "CAN",
                    admin_name: "Manitoba",
                    capital: "",
                    population: 1000,
                    id: 1124676851
                },
                {
                    city: "Port Hardy",
                    city_ascii: "Port Hardy",
                    lat: 50.7171,
                    lng: -127.5,
                    country: "Canada",
                    iso2: "CA",
                    iso3: "CAN",
                    admin_name: "British Columbia",
                    capital: "",
                    population: 2295,
                    id: 1124937351
                },
                {
                    city: "Penticton",
                    city_ascii: "Penticton",
                    lat: 49.5004,
                    lng: -119.5833,
                    country: "Canada",
                    iso2: "CA",
                    iso3: "CAN",
                    admin_name: "British Columbia",
                    capital: "",
                    population: 37721,
                    id: 1124613898
                },
                {
                    city: "Drummondville",
                    city_ascii: "Drummondville",
                    lat: 45.8833,
                    lng: -72.4834,
                    country: "Canada",
                    iso2: "CA",
                    iso3: "CAN",
                    admin_name: "Québec",
                    capital: "",
                    population: 59489,
                    id: 1124624283
                },
                {
                    city: "Brandon",
                    city_ascii: "Brandon",
                    lat: 49.8333,
                    lng: -99.95,
                    country: "Canada",
                    iso2: "CA",
                    iso3: "CAN",
                    admin_name: "Manitoba",
                    capital: "",
                    population: 28418,
                    id: 1124239939
                },
                {
                    city: "Argentia",
                    city_ascii: "Argentia",
                    lat: 47.3004,
                    lng: -53.99,
                    country: "Canada",
                    iso2: "CA",
                    iso3: "CAN",
                    admin_name: "Newfoundland and Labrador",
                    capital: "",
                    population: 1063,
                    id: 1124242107
                },
                {
                    city: "Kimmirut",
                    city_ascii: "Kimmirut",
                    lat: 62.85,
                    lng: -69.8833,
                    country: "Canada",
                    iso2: "CA",
                    iso3: "CAN",
                    admin_name: "Nunavut",
                    capital: "",
                    population: 385,
                    id: 1124651529
                },
                {
                    city: "Wiarton",
                    city_ascii: "Wiarton",
                    lat: 44.7337,
                    lng: -81.1333,
                    country: "Canada",
                    iso2: "CA",
                    iso3: "CAN",
                    admin_name: "Ontario",
                    capital: "",
                    population: 2182,
                    id: 1124916771
                },
                {
                    city: "Ottawa",
                    city_ascii: "Ottawa",
                    lat: 45.4167,
                    lng: -75.7,
                    country: "Canada",
                    iso2: "CA",
                    iso3: "CAN",
                    admin_name: "Ontario",
                    capital: "primary",
                    population: 1145000,
                    id: 1124399363
                },
                {
                    city: "Fort Chipewyan",
                    city_ascii: "Fort Chipewyan",
                    lat: 58.7171,
                    lng: -111.15,
                    country: "Canada",
                    iso2: "CA",
                    iso3: "CAN",
                    admin_name: "Alberta",
                    capital: "",
                    population: 3222,
                    id: 1124526582
                },
                {
                    city: "Fort Nelson",
                    city_ascii: "Fort Nelson",
                    lat: 58.8167,
                    lng: -122.533,
                    country: "Canada",
                    iso2: "CA",
                    iso3: "CAN",
                    admin_name: "British Columbia",
                    capital: "",
                    population: 6315,
                    id: 1124378059
                },
                {
                    city: "Lynn Lake",
                    city_ascii: "Lynn Lake",
                    lat: 56.85,
                    lng: -101.05,
                    country: "Canada",
                    iso2: "CA",
                    iso3: "CAN",
                    admin_name: "Manitoba",
                    capital: "",
                    population: 482,
                    id: 1124617750
                },
                {
                    city: "Weyburn",
                    city_ascii: "Weyburn",
                    lat: 49.6666,
                    lng: -103.85,
                    country: "Canada",
                    iso2: "CA",
                    iso3: "CAN",
                    admin_name: "Saskatchewan",
                    capital: "",
                    population: 9362,
                    id: 1124618383
                },
                {
                    city: "Burns Lake",
                    city_ascii: "Burns Lake",
                    lat: 54.217,
                    lng: -125.7666,
                    country: "Canada",
                    iso2: "CA",
                    iso3: "CAN",
                    admin_name: "British Columbia",
                    capital: "",
                    population: 2635,
                    id: 1124512812
                },
                {
                    city: "Nain",
                    city_ascii: "Nain",
                    lat: 56.5474,
                    lng: -61.686,
                    country: "Canada",
                    iso2: "CA",
                    iso3: "CAN",
                    admin_name: "Newfoundland and Labrador",
                    capital: "",
                    population: 1151,
                    id: 1124719084
                },
                {
                    city: "Prince George",
                    city_ascii: "Prince George",
                    lat: 53.9167,
                    lng: -122.7667,
                    country: "Canada",
                    iso2: "CA",
                    iso3: "CAN",
                    admin_name: "British Columbia",
                    capital: "",
                    population: 65558,
                    id: 1124733292
                },
                {
                    city: "Cochrane",
                    city_ascii: "Cochrane",
                    lat: 49.067,
                    lng: -81.0166,
                    country: "Canada",
                    iso2: "CA",
                    iso3: "CAN",
                    admin_name: "Ontario",
                    capital: "",
                    population: 4441,
                    id: 1124296729
                },
                {
                    city: "Nipigon",
                    city_ascii: "Nipigon",
                    lat: 49.017,
                    lng: -88.25,
                    country: "Canada",
                    iso2: "CA",
                    iso3: "CAN",
                    admin_name: "Ontario",
                    capital: "",
                    population: 1204,
                    id: 1124361489
                },
                {
                    city: "Rivière-du-Loup",
                    city_ascii: "Riviere-du-Loup",
                    lat: 47.8333,
                    lng: -69.5333,
                    country: "Canada",
                    iso2: "CA",
                    iso3: "CAN",
                    admin_name: "Québec",
                    capital: "",
                    population: 16403,
                    id: 1124662123
                },
                {
                    city: "St.-Jerome",
                    city_ascii: "St.-Jerome",
                    lat: 45.7666,
                    lng: -74,
                    country: "Canada",
                    iso2: "CA",
                    iso3: "CAN",
                    admin_name: "Québec",
                    capital: "",
                    population: 78439,
                    id: 1124268324
                },
                {
                    city: "Geraldton",
                    city_ascii: "Geraldton",
                    lat: 49.7166,
                    lng: -86.9666,
                    country: "Canada",
                    iso2: "CA",
                    iso3: "CAN",
                    admin_name: "Ontario",
                    capital: "",
                    population: 1290,
                    id: 1124836221
                },
                {
                    city: "New Liskeard",
                    city_ascii: "New Liskeard",
                    lat: 47.5,
                    lng: -79.6666,
                    country: "Canada",
                    iso2: "CA",
                    iso3: "CAN",
                    admin_name: "Ontario",
                    capital: "",
                    population: 5203,
                    id: 1124394858
                },
                {
                    city: "Cat Lake",
                    city_ascii: "Cat Lake",
                    lat: 51.717,
                    lng: -91.8,
                    country: "Canada",
                    iso2: "CA",
                    iso3: "CAN",
                    admin_name: "Ontario",
                    capital: "",
                    population: 277,
                    id: 1124908580
                },
                {
                    city: "Tofino",
                    city_ascii: "Tofino",
                    lat: 49.1521,
                    lng: -125.9031,
                    country: "Canada",
                    iso2: "CA",
                    iso3: "CAN",
                    admin_name: "British Columbia",
                    capital: "",
                    population: 1655,
                    id: 1124140302
                },
                {
                    city: "Tsiigehtchic",
                    city_ascii: "Tsiigehtchic",
                    lat: 67.4333,
                    lng: -133.75,
                    country: "Canada",
                    iso2: "CA",
                    iso3: "CAN",
                    admin_name: "Northwest Territories",
                    capital: "",
                    population: 175,
                    id: 1124282127
                },
                {
                    city: "Thompson",
                    city_ascii: "Thompson",
                    lat: 55.7499,
                    lng: -97.8666,
                    country: "Canada",
                    iso2: "CA",
                    iso3: "CAN",
                    admin_name: "Manitoba",
                    capital: "",
                    population: 13727,
                    id: 1124110693
                },
                {
                    city: "Abbotsford",
                    city_ascii: "Abbotsford",
                    lat: 49.0504,
                    lng: -122.3,
                    country: "Canada",
                    iso2: "CA",
                    iso3: "CAN",
                    admin_name: "British Columbia",
                    capital: "",
                    population: 151683,
                    id: 1124808029
                },
                {
                    city: "Trois-Rivières",
                    city_ascii: "Trois Rivieres",
                    lat: 46.35,
                    lng: -72.5499,
                    country: "Canada",
                    iso2: "CA",
                    iso3: "CAN",
                    admin_name: "Québec",
                    capital: "",
                    population: 119693,
                    id: 1124407487
                },
                {
                    city: "Peterborough",
                    city_ascii: "Peterborough",
                    lat: 44.3,
                    lng: -78.3333,
                    country: "Canada",
                    iso2: "CA",
                    iso3: "CAN",
                    admin_name: "Ontario",
                    capital: "",
                    population: 83627,
                    id: 1124440356
                },
                {
                    city: "Amos",
                    city_ascii: "Amos",
                    lat: 48.5666,
                    lng: -78.1167,
                    country: "Canada",
                    iso2: "CA",
                    iso3: "CAN",
                    admin_name: "Québec",
                    capital: "",
                    population: 10516,
                    id: 1124939649
                },
                {
                    city: "Chapleau",
                    city_ascii: "Chapleau",
                    lat: 47.8337,
                    lng: -83.4,
                    country: "Canada",
                    iso2: "CA",
                    iso3: "CAN",
                    admin_name: "Ontario",
                    capital: "",
                    population: 2663,
                    id: 1124518288
                },
                {
                    city: "Athabasca",
                    city_ascii: "Athabasca",
                    lat: 54.717,
                    lng: -113.2666,
                    country: "Canada",
                    iso2: "CA",
                    iso3: "CAN",
                    admin_name: "Alberta",
                    capital: "",
                    population: 2539,
                    id: 1124006333
                },
                {
                    city: "Red Deer",
                    city_ascii: "Red Deer",
                    lat: 52.2666,
                    lng: -113.8,
                    country: "Canada",
                    iso2: "CA",
                    iso3: "CAN",
                    admin_name: "Alberta",
                    capital: "",
                    population: 74857,
                    id: 1124404130
                },
                {
                    city: "Belleville",
                    city_ascii: "Belleville",
                    lat: 44.1667,
                    lng: -77.3833,
                    country: "Canada",
                    iso2: "CA",
                    iso3: "CAN",
                    admin_name: "Ontario",
                    capital: "",
                    population: 43990,
                    id: 1124786959
                },
                {
                    city: "Kapuskasing",
                    city_ascii: "Kapuskasing",
                    lat: 49.4167,
                    lng: -82.4333,
                    country: "Canada",
                    iso2: "CA",
                    iso3: "CAN",
                    admin_name: "Ontario",
                    capital: "",
                    population: 9240,
                    id: 1124764245
                },
                {
                    city: "Sioux Lookout",
                    city_ascii: "Sioux Lookout",
                    lat: 50.263,
                    lng: -91.9166,
                    country: "Canada",
                    iso2: "CA",
                    iso3: "CAN",
                    admin_name: "Ontario",
                    capital: "",
                    population: 4570,
                    id: 1124804545
                },
                {
                    city: "Winnipeg",
                    city_ascii: "Winnipeg",
                    lat: 49.883,
                    lng: -97.166,
                    country: "Canada",
                    iso2: "CA",
                    iso3: "CAN",
                    admin_name: "Manitoba",
                    capital: "admin",
                    population: 632063,
                    id: 1124224963
                },
                {
                    city: "Lake Louise",
                    city_ascii: "Lake Louise",
                    lat: 51.4337,
                    lng: -116.1833,
                    country: "Canada",
                    iso2: "CA",
                    iso3: "CAN",
                    admin_name: "Alberta",
                    capital: "",
                    population: 1248,
                    id: 1124619845
                },
                {
                    city: "Banff",
                    city_ascii: "Banff",
                    lat: 51.178,
                    lng: -115.5719,
                    country: "Canada",
                    iso2: "CA",
                    iso3: "CAN",
                    admin_name: "Alberta",
                    capital: "",
                    population: 7502,
                    id: 1124351648
                },
                {
                    city: "Doline",
                    city_ascii: "Doline",
                    lat: 65.1833,
                    lng: -123.4167,
                    country: "Canada",
                    iso2: "CA",
                    iso3: "CAN",
                    admin_name: "Northwest Territories",
                    capital: "",
                    population: 525,
                    id: 1124071207
                },
                {
                    city: "Cambridge Bay",
                    city_ascii: "Cambridge Bay",
                    lat: 69.117,
                    lng: -105.0333,
                    country: "Canada",
                    iso2: "CA",
                    iso3: "CAN",
                    admin_name: "Nunavut",
                    capital: "",
                    population: 1477,
                    id: 1124596377
                },
                {
                    city: "Biggar",
                    city_ascii: "Biggar",
                    lat: 52.0504,
                    lng: -107.9833,
                    country: "Canada",
                    iso2: "CA",
                    iso3: "CAN",
                    admin_name: "Saskatchewan",
                    capital: "",
                    population: 2192,
                    id: 1124897904
                },
                {
                    city: "Nanaimo",
                    city_ascii: "Nanaimo",
                    lat: 49.146,
                    lng: -123.9343,
                    country: "Canada",
                    iso2: "CA",
                    iso3: "CAN",
                    admin_name: "British Columbia",
                    capital: "",
                    population: 84905,
                    id: 1124623893
                },
                {
                    city: "Val d'Or",
                    city_ascii: "Val d'Or",
                    lat: 48.1166,
                    lng: -77.7666,
                    country: "Canada",
                    iso2: "CA",
                    iso3: "CAN",
                    admin_name: "Québec",
                    capital: "",
                    population: 20625,
                    id: 1124239138
                },
                {
                    city: "Hall Beach",
                    city_ascii: "Hall Beach",
                    lat: 68.7675,
                    lng: -81.2361,
                    country: "Canada",
                    iso2: "CA",
                    iso3: "CAN",
                    admin_name: "Nunavut",
                    capital: "",
                    population: 654,
                    id: 1124072220
                },
                {
                    city: "Oxford House",
                    city_ascii: "Oxford House",
                    lat: 54.9504,
                    lng: -95.2666,
                    country: "Canada",
                    iso2: "CA",
                    iso3: "CAN",
                    admin_name: "Manitoba",
                    capital: "",
                    population: 184,
                    id: 1124490415
                },
                {
                    city: "The Pas",
                    city_ascii: "The Pas",
                    lat: 53.8166,
                    lng: -101.2333,
                    country: "Canada",
                    iso2: "CA",
                    iso3: "CAN",
                    admin_name: "Manitoba",
                    capital: "",
                    population: 6055,
                    id: 1124755168
                },
                {
                    city: "Meander River",
                    city_ascii: "Meander River",
                    lat: 59.0333,
                    lng: -117.683,
                    country: "Canada",
                    iso2: "CA",
                    iso3: "CAN",
                    admin_name: "Alberta",
                    capital: "",
                    population: 200,
                    id: 1124688170
                },
                {
                    city: "Bathurst",
                    city_ascii: "Bathurst",
                    lat: 47.6,
                    lng: -65.65,
                    country: "Canada",
                    iso2: "CA",
                    iso3: "CAN",
                    admin_name: "New Brunswick",
                    capital: "",
                    population: 6111,
                    id: 1124816720
                },
                {
                    city: "Windsor",
                    city_ascii: "Windsor",
                    lat: 44.9806,
                    lng: -64.1291,
                    country: "Canada",
                    iso2: "CA",
                    iso3: "CAN",
                    admin_name: "Nova Scotia",
                    capital: "",
                    population: 3864,
                    id: 1124800737
                },
                {
                    city: "Victoriaville",
                    city_ascii: "Victoriaville",
                    lat: 46.0504,
                    lng: -71.9667,
                    country: "Canada",
                    iso2: "CA",
                    iso3: "CAN",
                    admin_name: "Québec",
                    capital: "",
                    population: 41500,
                    id: 1124149787
                },
                {
                    city: "Brockville",
                    city_ascii: "Brockville",
                    lat: 44.5893,
                    lng: -75.6953,
                    country: "Canada",
                    iso2: "CA",
                    iso3: "CAN",
                    admin_name: "Ontario",
                    capital: "",
                    population: 26458,
                    id: 1124286131
                },
                {
                    city: "Hamilton",
                    city_ascii: "Hamilton",
                    lat: 43.25,
                    lng: -79.83,
                    country: "Canada",
                    iso2: "CA",
                    iso3: "CAN",
                    admin_name: "Ontario",
                    capital: "",
                    population: 721053,
                    id: 1124567288
                },
                {
                    city: "Kitchener",
                    city_ascii: "Kitchener",
                    lat: 43.45,
                    lng: -80.5,
                    country: "Canada",
                    iso2: "CA",
                    iso3: "CAN",
                    admin_name: "Ontario",
                    capital: "",
                    population: 417001,
                    id: 1124158530
                },
                {
                    city: "Victoria",
                    city_ascii: "Victoria",
                    lat: 48.4333,
                    lng: -123.35,
                    country: "Canada",
                    iso2: "CA",
                    iso3: "CAN",
                    admin_name: "British Columbia",
                    capital: "admin",
                    population: 289625,
                    id: 1124147219
                },
                {
                    city: "Orangeville",
                    city_ascii: "Orangeville",
                    lat: 43.9171,
                    lng: -80.0833,
                    country: "Canada",
                    iso2: "CA",
                    iso3: "CAN",
                    admin_name: "Ontario",
                    capital: "",
                    population: 32640,
                    id: 1124566061
                },
                {
                    city: "Sandspit",
                    city_ascii: "Sandspit",
                    lat: 53.2404,
                    lng: -131.8333,
                    country: "Canada",
                    iso2: "CA",
                    iso3: "CAN",
                    admin_name: "British Columbia",
                    capital: "",
                    population: 538,
                    id: 1124264846
                },
                {
                    city: "Wawa",
                    city_ascii: "Wawa",
                    lat: 48.0004,
                    lng: -84.7833,
                    country: "Canada",
                    iso2: "CA",
                    iso3: "CAN",
                    admin_name: "Ontario",
                    capital: "",
                    population: 2174,
                    id: 1124381797
                },
                {
                    city: "Kangirsuk",
                    city_ascii: "Kangirsuk",
                    lat: 60.0248,
                    lng: -69.9991,
                    country: "Canada",
                    iso2: "CA",
                    iso3: "CAN",
                    admin_name: "Québec",
                    capital: "",
                    population: 549,
                    id: 1124276361
                },
                {
                    city: "Shawinigan",
                    city_ascii: "Shawinigan",
                    lat: 46.5504,
                    lng: -72.7333,
                    country: "Canada",
                    iso2: "CA",
                    iso3: "CAN",
                    admin_name: "Québec",
                    capital: "",
                    population: 49161,
                    id: 1124441118
                },
                {
                    city: "Hearst",
                    city_ascii: "Hearst",
                    lat: 49.7005,
                    lng: -83.6666,
                    country: "Canada",
                    iso2: "CA",
                    iso3: "CAN",
                    admin_name: "Ontario",
                    capital: "",
                    population: 5043,
                    id: 1124376843
                },